City_ID,City,Country,Max Temp,Current Description,Lat,Lng,Hotel Name
0,Ushuaia,AR,35.26,scattered clouds,-54.8,-68.3,Albatross Hotel
1,Kaitangata,NZ,45.19,moderate rain,-46.2817,169.8464,Kaitangata Motor Camp
2,Mehamn,NO,55.31,overcast clouds,71.0357,27.8492,Mehamn Arctic Hotel AS
3,Mataura,NZ,46.47,light rain,-46.1927,168.8643,Ellie's Villa
4,Butaritari,KI,82.62,overcast clouds,3.0707,172.7902,Isles Sunset Lodge
5,Bambous Virieux,MU,67.21,scattered clouds,-20.3428,57.7575,Casa Tia Villa
6,Kalat,PK,66.9,overcast clouds,29.0225,66.5916,PHE Rest House
7,Flinders,AU,65.37,scattered clouds,-34.5833,150.8552,Shellharbour Resort & Conference Centre
8,Cape Town,ZA,58.37,clear sky,-33.9258,18.4232,"Radisson Blu Hotel Waterfront, Cape Town"
9,Yellowknife,CA,72.12,scattered clouds,62.456,-114.3525,The Explorer Hotel
10,Tuktoyaktuk,CA,60.8,broken clouds,69.4541,-133.0374,End of The Road Ltd.
11,Faya,SA,63.12,light rain,18.3851,42.4509,املاك خالد الشعشوع
12,Yuncheng,CN,80.08,scattered clouds,35.0231,110.9928,晋州快捷酒店
13,Virginia Beach,US,88.02,broken clouds,36.8529,-75.97800000000001,Hilton Virginia Beach Oceanfront
14,Kiunga,PG,78.69,broken clouds,-6.1219,141.2906,Airport Lodge Kiunga
15,Punta Arenas,CL,32.11,few clouds,-53.15,-70.9167,Hotel Hain
17,Kapaa,US,84.18,overcast clouds,22.0752,-159.319,Sheraton Kauai Coconut Beach Resort
18,Tutoia,BR,79.21,overcast clouds,-2.7619,-42.2744,Pousada Guará's
19,North Bend,US,82.24,broken clouds,43.4065,-124.2243,Red Lion Hotel Coos Bay
20,Muisne,EC,73.24,overcast clouds,0.6,-80.0333,Quinta Samay
21,Rawson,AR,45.18,overcast clouds,-43.3002,-65.1023,Hosteria Sampedro
22,Mizdah,LY,72.77,clear sky,31.4451,12.9801,محمدالمبروك الاريقط
23,Bredasdorp,ZA,46.78,clear sky,-34.5322,20.0403,Bredasdorp Country Manor
24,Anaconda,US,81.59,overcast clouds,46.1285,-112.9423,Trade Wind Motel
25,Rikitea,PF,75.61,broken clouds,-23.1203,-134.9692,People ThankYou
26,Wembley,AU,57.09,light rain,-31.9333,115.8,Cambridge Atrium
27,Cabo San Lucas,MX,94.3,few clouds,22.8909,-109.9124,Hotel Tesoro Los Cabos
29,Avarua,CK,71.65,scattered clouds,-21.2078,-159.775,Paradise Inn
30,Pevek,RU,38.41,overcast clouds,69.7008,170.3133,Severnoye Zoloto
31,New Norfolk,AU,56.91,overcast clouds,-42.7826,147.0587,The Shingles Riverside Cottages
32,Puerto Ayora,EC,69.55,overcast clouds,-0.7393,-90.3518,Finch Bay Galapagos Hotel
33,Vaini,TO,78.96,scattered clouds,-21.2,-175.2,Keleti Beach Resort
34,Pinas,EC,66.27,light rain,-3.6667,-79.65,Hostería Florecer
35,Qaanaaq,GL,42.55,clear sky,77.484,-69.3632,Qaanaaq Hotel
36,Marsaxlokk,MT,83.08,clear sky,35.8419,14.5431,Water's Edge
37,Sitka,US,57.09,mist,57.0531,-135.33,Westmark Sitka
38,Banamba,ML,77.18,broken clouds,13.55,-7.45,Kassela de Banamba
40,Leningradskiy,RU,34.66,overcast clouds,69.3833,178.4167,Gostinitsa
41,Barrow,US,37.42,mist,71.2906,-156.7887,King Eider Inn
42,Strezhevoy,RU,60.55,overcast clouds,60.7333,77.5889,Sibiryachka
43,Ponta Do Sol,PT,88.43,overcast clouds,32.6667,-17.1,Hotel do Campo
44,Berlevag,NO,55.35,overcast clouds,70.8578,29.0864,Kvitbrakka
45,Mar Del Plata,AR,55.09,overcast clouds,-38.0023,-57.5575,Gran Hotel Mar del Plata
47,Port Alfred,ZA,53.19,clear sky,-33.5906,26.891,The Halyards Hotel
48,Lagoa,PT,73.33,clear sky,39.05,-27.9833,Casa Das Faias
50,Yakeshi,CN,74.28,heavy intensity rain,49.2833,120.7333,Longhua Hotel
51,Benjamin Constant,BR,75.33,broken clouds,-4.3831,-70.0311,CASA AVALIADA
54,Los Llanos De Aridane,ES,71.35,clear sky,28.6585,-17.9182,Valle Aridane
55,Kodiak,US,62.11,overcast clouds,57.79,-152.4072,Best Western Kodiak Inn And Convention Center
56,Hasaki,JP,79.2,overcast clouds,35.7333,140.8333,Inubosaki Kanko Hotel
57,Atuona,PF,77.77,clear sky,-9.8,-139.0333,Villa Enata
58,Muros,ES,64.83,clear sky,42.7762,-9.0603,Apartment Av. Castelao
59,Aljezur,PT,66.4,clear sky,37.3191,-8.8033,Amazigh Hostel
60,Cap-Aux-Meules,CA,73.45,light rain,47.3821,-61.8597,Auberge Madeli
61,Agucadoura,PT,70.25,clear sky,41.4318,-8.7804,Varzinn Hotel
62,Shirgaon,IN,80.33,overcast clouds,19.7,72.7,"Samarth Krupa Farm, Palghar"
63,Mahebourg,MU,67.24,scattered clouds,-20.4081,57.7,Shandrani Beachcomber Resort & Spa
64,Arraial Do Cabo,BR,70.65,clear sky,-22.9661,-42.0278,Pousada Porto Praia
65,Saint George,US,72.19,moderate rain,37.1041,-113.5841,Best Western Plus Abbey Inn
66,Labuhan,ID,76.57,broken clouds,-6.8844,112.2051,DoubleFAG
68,Saint-Philippe,RE,64.22,light rain,-21.3585,55.7679,Le four à pain
69,Namatanai,PG,82.51,light rain,-3.6667,152.4333,Seagulls Inn Namatani
70,Riyadh,SA,93.34,overcast clouds,24.6877,46.7219,"InterContinental Riyadh, an IHG Hotel"
71,Mehriz,IR,84.7,scattered clouds,31.5917,54.4318,Mehrgard dwelling/سرای مهرگرد
73,Soe,ID,72.63,broken clouds,-9.8607,124.28399999999999,Dena Hotel
74,Fortuna,US,72.93,scattered clouds,40.5982,-124.1573,Super 8 by Wyndham Fortuna
75,Lengshuitan,CN,89.11,clear sky,26.4111,111.5956,Jialong Hotel
76,Nikolskoye,RU,60.87,broken clouds,59.7035,30.7861,Tourist House - Sablino
77,Aklavik,CA,75.15,overcast clouds,68.2191,-135.0107,Aklavik Inn
78,Viransehir,TR,82.33,clear sky,37.2353,39.7631,Viranşehir Öğretmenevi
80,Hermanus,ZA,48.79,clear sky,-34.4187,19.2345,Misty Waves Boutique Hotel
81,Broome,US,73.78,clear sky,42.2506,-75.833,Chenango Valley State Park
82,Khuzhir,RU,52.65,light rain,53.1939,107.3397,Отель на озере Байкал Baikal View
83,Srandakan,ID,75.2,overcast clouds,-7.9386,110.2506,Puri Brata
85,Pak Phanang,TH,80.62,broken clouds,8.3511,100.20200000000001,Green Park Inn Hotel
86,Goiatuba,BR,67.1,clear sky,-18.0125,-49.3547,Hotel Barrocos
87,Moose Factory,CA,60.8,overcast clouds,51.2585,-80.6094,Cree Village Eco Lodge
88,Portel,BR,75.47,overcast clouds,-1.9356,-50.8211,Kitnet do Marcos
89,Wewak,PG,83.34,broken clouds,-3.5534,143.6268,In Wewak Boutique Hotel
90,Norman Wells,CA,78.84,scattered clouds,65.282,-126.8329,Heritage Hotel
91,Cootamundra,AU,46.71,overcast clouds,-34.65,148.0333,Cootamundra Gardens Motel & indian restaurant
92,Aksu,CN,83.05,clear sky,41.1231,80.2644,Pudong Holiday Hotel
93,Hobart,AU,57.25,broken clouds,-42.8794,147.3294,St Ives Hobart Accommodation Tasmania
94,Erzin,TR,73.92,clear sky,36.9559,36.2,Artemis Otel
95,Fort Nelson,CA,78.39,broken clouds,58.8053,-122.7002,The Fort Nelson Hotel
96,Coahuayana,MX,81.7,overcast clouds,18.7333,-103.6833,El rranchito michuacan de ocampos
97,Zambezi,ZM,52.29,clear sky,-13.5432,23.1047,Royal Kutachika Lodge
98,Along,IN,74.95,overcast clouds,28.1667,94.7667,Hotel West
99,Seaforth,JM,83.25,broken clouds,17.9358,-76.4573,"Stewart Field, Seaforth P.O., St. Thomas"
100,East London,ZA,55.26,clear sky,-33.0153,27.9116,Tu Casa
102,Port Elizabeth,ZA,55.69,clear sky,-33.918,25.5701,39 On Nile Guest House
103,Santona,ES,67.59,broken clouds,43.4439,-3.4576,Playamar
104,Bengkulu,ID,74.8,overcast clouds,-3.8004,102.2655,Grage Hotel Bengkulu
105,Port-Gentil,GA,74.16,overcast clouds,-0.7193,8.7815,Fengshui Residence
106,Hithadhoo,MV,82.65,scattered clouds,-0.6,73.0833,Scoop Guest House
107,Georgetown,MY,80.89,few clouds,5.4112,100.3354,Cititel Penang
108,Qaqortoq,GL,43.16,light rain,60.7167,-46.0333,Siniffik Inn
109,Bethel,US,81.45,scattered clouds,41.3712,-73.414,Courtyard by Marriott Danbury
110,Busselton,AU,61.72,moderate rain,-33.65,115.3333,Observatory Guest House
111,Nuuk,GL,41.88,overcast clouds,64.1835,-51.7216,Vandrehuset
112,Ewa Beach,US,87.75,broken clouds,21.3156,-158.0072,Base Lodging
113,Visnes,NO,53.22,light intensity drizzle,59.3556,5.2242,Park Inn Haugesund Airport
114,Mill Valley,US,77.25,scattered clouds,37.906,-122.545,Best Western Corte Madera Inn
115,Jamestown,US,69.39,clear sky,42.097,-79.2353,Hampton Inn & Suites Jamestown
117,Hobyo,SO,74.55,few clouds,5.3505,48.5268,Iftin hotel hobyo
118,Seoul,KR,83.77,clear sky,37.5683,126.9778,LOTTE HOTEL SEOUL
119,Thompson,CA,60.96,broken clouds,55.7435,-97.8558,Burntwood Hotel
120,Sarishabari,BD,80.56,overcast clouds,24.7333,89.8333,Bangali Telecom
121,High Level,CA,75.31,scattered clouds,58.5169,-117.13600000000001,Days Inn by Wyndham High Level
122,Martapura,ID,80.69,few clouds,-3.4167,114.85,Montana Hotel Syariah
123,Nome,US,54.16,light rain,64.5011,-165.4064,Dredge 7 Inn
124,Lompoc,US,82.54,clear sky,34.6391,-120.4579,"Holiday Inn Express Lompoc, an IHG Hotel"
125,Olafsvik,IS,51.75,overcast clouds,64.8945,-23.7142,Hotel Olafsvik
126,Padang,ID,73.45,heavy intensity rain,-0.9492,100.3543,Mercure Padang
128,Marrakesh,MA,91.47,clear sky,31.6315,-8.0083,Les Jardins de La Koutoubia
129,Grindavik,IS,49.95,light intensity drizzle,63.8424,-22.4338,Northern Light Inn & Max's Restaurant
130,Calvinia,ZA,49.01,clear sky,-31.4707,19.776,Die Lemoenhuis
131,Vila Franca Do Campo,PT,72.01,scattered clouds,37.7167,-25.4333,Pestana Bahia Praia
132,Ranong,TH,76.93,overcast clouds,9.9658,98.6348,Numsai Khaosuay Resort Ranong
133,Clyde River,CA,41.23,overcast clouds,70.4692,-68.5914,Qamaq Hotel
134,Waingapu,ID,78.93,scattered clouds,-9.6567,120.2641,Pondok Wisata Elim
135,Hilo,US,89.28,few clouds,19.7297,-155.09,Hilo Hawaiian Hotel
136,Tasiilaq,GL,39.38,overcast clouds,65.6145,-37.6368,The Red House
137,Pacific Grove,US,70.02,few clouds,36.6177,-121.9166,Lovers Point Inn
138,Kars,TR,50.52,clear sky,40.602,43.095,Kars Otel
139,Bathsheba,BB,81.21,broken clouds,13.2167,-59.5167,Atlantis Hotel
140,Khatanga,RU,73.74,clear sky,71.9667,102.5,"""Khatanga"""
141,Guerrero Negro,MX,73.15,clear sky,27.9769,-114.0611,"Casa Laguna, Bed & Breakfast"
142,Bandarbeyla,SO,77.27,overcast clouds,9.4942,50.8122,JABIR HOTEL
143,Iqaluit,CA,46.13,few clouds,63.7506,-68.5145,Frobisher Inn
144,Llanes,ES,66.7,overcast clouds,43.4198,-4.7549,Hotel La Paz
145,Faanui,PF,77.77,moderate rain,-16.4833,-151.75,Bora-Bora Pearl Beach Resort & Spa
146,Hualmay,PE,62.1,scattered clouds,-11.0964,-77.6139,Hotel Villa Kitzia Huacho
147,Mashhad,IR,77.14,clear sky,36.297,59.6062,Khanye Sabz Hotel
148,Mount Isa,AU,65.97,clear sky,-20.7333,139.5,ibis Styles Mt Isa Verona
149,Djambala,CG,65.89,overcast clouds,-2.5447,14.7533,Hotel Ravin D'or
150,Porbandar,IN,81.88,overcast clouds,21.6422,69.6093,Lords Inn Porbandar
151,Cayenne,GF,83.08,clear sky,4.9333,-52.3333,Hôtel Le Dronmi
152,Mecca,SA,86.92,overcast clouds,21.4267,39.8261,"Makkah Clock Royal Tower, A Fairmont Hotel"
153,Barra De Sao Francisco,BR,63.91,clear sky,-18.755,-40.8908,Td Hotel
154,The Valley,AI,83.1,overcast clouds,18.217,-63.0578,CeBlue Villas & Beach Resort
155,Saldanha,ZA,51.85,clear sky,-33.0117,17.9442,Blue Bay Lodge
156,Chipinge,ZW,50.2,scattered clouds,-20.1883,32.6236,Chipinge Breeze Lodge
157,Lebu,CL,53.55,clear sky,-37.6167,-73.65,Hostal Las Lilas
158,Katsuura,JP,80.62,overcast clouds,35.1333,140.3,Katsuura Hotel Mikazuki
159,Mount Gambier,AU,53.29,clear sky,-37.8333,140.7667,The Commodore
160,Cidreira,BR,60.89,clear sky,-30.1811,-50.2056,Hotel Castelo
161,Samdari,IN,78.64,moderate rain,25.8167,72.5833,Karnoba Ki Dhani
162,Banda Aceh,ID,79.16,overcast clouds,5.5577,95.3222,OYO 884 Rumoh PMI Hotel
163,Kandrian,PG,83.5,moderate rain,-6.2167,149.55,Kandrian Station
164,Acari,PE,64.96,scattered clouds,-15.4311,-74.6158,HOSPEDAJE XIMENA
165,Nushki,PK,81.54,overcast clouds,29.5542,66.0215,Shams hotel
166,Romny,UA,56.73,few clouds,50.751000000000005,33.4747,Floriana
167,Half Moon Bay,US,80.06,overcast clouds,37.4636,-122.4286,"The Ritz-Carlton, Half Moon Bay"
168,Jalu,LY,81.88,clear sky,29.0331,21.5482,صاحبة الفخامة
169,Meadow Lake,US,83.48,light rain,34.8014,-106.5436,TumbleWeed RV Park
171,Farias Brito,BR,74.08,overcast clouds,-6.9306,-39.5656,Pousada Boa Vista
172,Mandalgovi,MN,62.8,clear sky,45.7625,106.2708,В.Ганбат
173,Shingu,JP,86.07,overcast clouds,33.7333,135.9833,Shingu UI Hotel
174,San Patricio,US,90.32,broken clouds,28.017,-97.5169,"Motel 6 Sinton, TX"
175,Wittmund,DE,66.04,clear sky,53.5667,7.7833,Hof von Hannover
177,Pithoro,PK,81.64,overcast clouds,25.5167,69.3833,Village Haji Muhammad Yousif Panhwar
178,Nevyansk,RU,62.78,few clouds,57.4953,60.2112,Kapriz
179,Floro,NO,56.23,mist,61.5996,5.0328,Kinn Hotell Florø
180,Kintampo,GH,71.58,broken clouds,8.0563,-1.7306,Adomaa Memorial Hotel
181,Sandwick,GB,49.82,overcast clouds,60.0,-1.25,Beach House Self-Catering Accomodation
182,Cachoeirinha,BR,66.6,mist,-29.9511,-51.0939,Motel Sahara
183,Saint Anthony,US,74.82,clear sky,45.0205,-93.21799999999999,Holiday Inn Express Roseville-St. Paul
184,Ajaccio,FR,71.65,clear sky,42.0,8.9167,Sole E Monte
185,Bluff,NZ,46.8,overcast clouds,-46.6,168.3333,Bluff Homestead - Guesthouse & Campervan Park
186,Alyangula,AU,77.74,clear sky,-13.8483,136.4192,Groote Eylandt Lodge
187,Nhulunbuy,AU,79.41,broken clouds,-12.2333,136.7667,East Arnhem Real Estate
188,Akyab,MM,80.6,clear sky,20.15,92.9,Hotel Memory
189,Tulum,MX,79.43,overcast clouds,20.2167,-87.4667,Kin Ha Tulum
190,Fairbanks,US,77.49,broken clouds,64.8378,-147.7164,Westmark Fairbanks Hotel & Conference Center
191,Padalarang,ID,72.21,overcast clouds,-6.8378,107.4728,Mason Pine Hotel
192,Qom,IR,77.9,clear sky,34.6401,50.8764,Qom Hotel
193,Sambava,MG,68.29,light rain,-14.2667,50.1667,Melrose
194,Nanortalik,GL,42.6,overcast clouds,60.1432,-45.2371,Hotel Kap Farvel
195,Xiongzhou,CN,91.02,broken clouds,25.1167,114.3,Xinhewan Business Hotel
196,Pemangkat,ID,78.51,overcast clouds,1.1667,108.9667,Ramah Kost KITA
197,Cochabamba,BO,65.95,few clouds,-17.3895,-66.1568,Hotel Aranjuez Cochabamba
198,Mirnyy,RU,75.24,clear sky,62.5353,113.9611,квартира
199,Talnakh,RU,58.21,scattered clouds,69.4865,88.3972,Talnakh Hotel
201,Igrim,RU,51.85,clear sky,63.1906,64.4162,Obshchezhitiye Uchebno-Proizvodstvennogo Tsentra
202,Tiksi,RU,50.63,broken clouds,71.6872,128.8694,Arktika
203,Goderich,CA,68.32,clear sky,43.7501,-81.7165,Harmony Inn
206,Lasa,IT,61.36,overcast clouds,46.6166,10.7002,Pension Feldgärtenhof
207,New Glasgow,CA,74.79,overcast clouds,45.5834,-62.6486,"Holiday Inn Express Stellarton-New Glasgow, an IHG Hotel"
210,Anadyr,RU,48.7,scattered clouds,64.75,177.4833,Отке17.ру — жильё для командированных
212,Esperance,AU,54.55,clear sky,-33.8667,121.9,Hospitality Esperance
213,Sakakah,SA,85.57,clear sky,29.9697,40.2064,Fakhamat Al Orjoana Apartment
214,Khandyga,RU,73.78,few clouds,62.6667,135.6,Apel'sin
215,Sussex,US,82.35,broken clouds,41.1834,-74.6663,Top O Hill Farm - McDougals
216,Beni Suef,EG,81.07,clear sky,29.0731,31.0979,Jewel Inn Beni Suef
217,Atar,MR,91.72,overcast clouds,20.5169,-13.0499,Oumou Elghoura
218,Hatillo,PR,83.1,broken clouds,18.4863,-66.8254,El Buen Hotel
219,Nipawin,CA,68.04,thunderstorm,53.3668,-104.0009,Tobin Lake Motel
220,Njombe,TZ,48.09,few clouds,-9.3333,34.7667,Hillside Hotel
222,Manado,ID,84.97,few clouds,1.4869999999999999,124.8455,Aryaduta Hotel
223,Buluang,PH,86.25,overcast clouds,13.3068,123.3425,Sacueza Beach Resort
224,San Cristobal,VE,75.38,scattered clouds,7.7669,-72.225,Pirineos
225,Lyuban,BY,56.23,clear sky,52.7985,28.0048,"Gostinitsa ""Oressa"""
227,Nanakuli,US,87.75,broken clouds,21.3906,-158.1547,Camp Pālehua
228,Vila Velha,BR,69.94,scattered clouds,-20.3297,-40.2925,Hotel Vitória Palace
229,Lorengau,PG,82.47,overcast clouds,-2.0226,147.2712,Lorengau Harbourside Hotel
230,Ribeira Grande,PT,74.52,clear sky,38.5167,-28.7,Quinta da Meia Eira
231,Te Anau,NZ,41.59,overcast clouds,-45.4167,167.7167,Kingsgate Hotel Te Anau
232,Zacualpan,MX,82.2,overcast clouds,21.25,-105.1667,La Colorada B&B
233,Bubaque,GW,78.04,moderate rain,11.2833,-15.8333,"Casa Dora, Bubaque"
234,Waipawa,NZ,52.88,overcast clouds,-41.4122,175.5153,Tora Coastal Walk
235,Kavaratti,IN,81.45,scattered clouds,10.5669,72.642,Green leaf
236,Bima,ID,81.41,overcast clouds,-8.4667,118.7167,Lambitu Hotel
237,Port Hardy,CA,69.98,fog,50.6996,-127.4199,Airport Inn-Port Hardy
238,Camana,PE,60.84,broken clouds,-16.6228,-72.7111,Hostal Morales
239,Semirom,IR,64.53,clear sky,31.4167,51.5667,Motel Dena
240,Nizwa,OM,83.32,moderate rain,22.9333,57.5333,Orient Apartments
241,Ust-Tsilma,RU,48.13,overcast clouds,65.441,52.1498,U Praskov'i
243,Chatakonda,IN,77.52,overcast clouds,17.55,80.65,Hotel Surya Palace
244,Ilulissat,GL,38.08,overcast clouds,69.2167,-51.1,Hotel Arctic
245,Zaysan,KZ,69.89,clear sky,47.4667,84.8667,Ерлан үй
246,Ancud,CL,46.83,light rain,-41.8697,-73.8203,Hotel Arena Gruesa
247,Chiang Mai,TH,82.9,few clouds,18.75,99.0,Centara Riverside Hotel Chiangmai
248,Siilinjarvi,FI,64.42,clear sky,63.0833,27.6667,Hotelli Sandels Oy
249,Pisco,PE,60.85,mist,-13.7,-76.2167,Hotel San Isidro Oficial
250,Rocha,UY,59.22,heavy intensity rain,-34.4833,-54.3333,Hotel Arrarte
251,Kahului,US,89.62,scattered clouds,20.8947,-156.47,Maui Seaside Hotel
252,Torbay,CA,68.88,overcast clouds,47.6666,-52.7314,Gallows Cove
253,Dhidhdhoo,MV,81.61,scattered clouds,6.8833,73.1,Dhidhoo beach
254,Nishihara,JP,87.46,few clouds,26.1842,127.7558,Minshuku Agaihama
255,Boulder,US,84.83,clear sky,40.0833,-105.3505,Deck House Boulder
256,Caranan,PH,84.96,overcast clouds,13.5167,123.0156,Regnim Bea Resort
257,Kant,IN,83.03,clear sky,27.8,79.8,Sumit Verma
258,Cherskiy,RU,56.3,overcast clouds,68.75,161.3,Gostinitsa
259,Maxixe,MZ,59.25,clear sky,-23.8597,35.3472,Oceano
260,Kununurra,AU,80.58,scattered clouds,-15.7667,128.7333,Hotel Kununurra
261,Cairns,AU,80.11,overcast clouds,-16.9167,145.7667,Mantra Trilogy Cairns
262,Luanda,AO,70.63,overcast clouds,-8.8368,13.2343,EPIC SANA Luanda
263,Carnarvon,AU,63.1,clear sky,-24.8667,113.6333,Hospitality Carnarvon
264,Aswan,EG,88.9,clear sky,24.0934,32.907,Nuba Nile
265,Marysville,US,89.46,clear sky,48.0518,-122.1771,"Holiday Inn Express & Suites Marysville, an IHG Hotel"
266,Lahat,ID,76.15,broken clouds,-3.8,103.5333,Hotel Grand Zuri Lahat by ZHM
268,Xichang,CN,69.87,few clouds,27.8964,102.2634,Xichang ibis Hotel
269,Badarganj,BD,82.09,moderate rain,25.674,89.0549,Raushon
272,Narsaq,GL,45.39,light rain,60.9167,-46.05,Sleep In Narsaq
273,Oistins,BB,80.69,broken clouds,13.0667,-59.5333,Butterfly Beach Hotel
274,Piacabucu,BR,72.5,overcast clouds,-10.4056,-36.4344,Piaçabuçu News
275,Agadir,MA,77.45,broken clouds,30.4202,-9.5982,Iberostar Founty Beach
276,Kenai,US,63.03,broken clouds,60.5544,-151.2583,Aspen Extended Stay Suites
277,Devils Lake,US,78.78,broken clouds,48.1128,-98.8651,"Holiday Inn Express Devils Lake, an IHG Hotel"
278,Castro,BR,58.78,broken clouds,-24.7911,-50.0119,CHACARA BAILLY
279,Husavik,IS,48.97,overcast clouds,66.0449,-17.3389,Bjarnabúð
280,Pirenopolis,BR,72.09,clear sky,-15.8525,-48.9592,Mandala dos Pirineus Eco Village
281,Villanueva,HN,83.39,few clouds,15.3167,-88.0,IGLESIA EVANGELICA DEL PRINCIPE DE PAZ
283,Severnyy,RU,60.84,clear sky,50.677,36.5532,Full House North Mini-Hotel
284,Rengo,CL,50.92,overcast clouds,-34.4167,-70.8667,Hostal Cartagena
285,Bulgan,MN,55.22,overcast clouds,48.8125,103.5347,Unitel Булган салбар
286,Camacha,PT,67.42,scattered clouds,33.0833,-16.3333,Hotel Porto Santo & Spa
287,Petropavlovsk-Kamchatskiy,RU,59.59,broken clouds,53.0452,158.6483,The Hotel Petropavlovsky
288,Huarmey,PE,63.61,overcast clouds,-10.0681,-78.1522,Hotel Miramar
289,Ketchikan,US,68.47,few clouds,55.3422,-131.6461,Snow's Cove Lodge
290,Boddam,GB,52.18,broken clouds,57.4667,-1.7833,Palace Hotel
292,Ulaangom,MN,63.03,clear sky,49.9811,92.0667,Achit Nuur Hotel & Restaurant
293,Susa,TN,80.38,clear sky,35.8254,10.637,Riadh Palms Resort & Spa Hotel / نزل رياض النخيل
295,Sumbe,AO,68.97,scattered clouds,-11.2061,13.8437,Hotel Ritz Sumbe
296,Nizhneangarsk,RU,53.53,light rain,55.7833,109.55,Хостел
298,Sabang,ID,80.58,overcast clouds,5.8933,95.3214,Hotel Citra
299,Sokoni,TZ,73.26,scattered clouds,-6.4333,39.55,Ujamaa Beach Resort
300,Pontian Kecil,MY,77.32,moderate rain,1.4801,103.3899,SUNFLOWER EXPRESS HOTEL
301,Moerai,PF,70.12,broken clouds,-22.4333,-151.3333,Le Manotel
302,Hofn,IS,51.44,clear sky,64.2539,-15.2082,Hótel Höfn
303,Nago,JP,88.23,few clouds,26.5881,127.9761,Hotel Yugaf Inn Okinawa
304,Ellisras,ZA,50.18,clear sky,-23.6649,27.7443,Lapa le le guesthouse
305,Ust-Ilimsk,RU,61.07,light rain,58.0006,102.6619,AleNat Center
306,Manggar,ID,82.35,broken clouds,-2.8833,108.2667,Guest Hotel
307,Tsiroanomandidy,MG,55.35,clear sky,-18.7667,46.0333,Hotel Ravinala
308,Guilin,CN,84.31,clear sky,25.2819,110.2864,Grand 0773 Hotel
309,Mogadishu,SO,75.65,overcast clouds,2.0371,45.3438,Hotel Juba
310,Iquique,CL,59.04,broken clouds,-20.2208,-70.1431,Backpacker`s Hostel Iquique
311,Souillac,MU,66.58,scattered clouds,-20.5167,57.5167,Shanti Maurice Resort & Spa
314,Nouadhibou,MR,82.38,clear sky,20.930999999999997,-17.0347,El Medina
315,Marsh Harbour,BS,83.35,broken clouds,26.5412,-77.0636,Abaco Beach Resort
316,Joshimath,IN,71.17,overcast clouds,30.5667,79.5667,Shivalik Camps & Resort
317,Chigorodo,CO,78.6,broken clouds,7.6664,-76.6811,Hotel Las Guaduas Del Darien
318,Odweyne,SO,70.29,scattered clouds,9.4092,45.06399999999999,Eng Hiirey House
319,Villamontes,BO,79.29,broken clouds,-21.25,-63.5,Hotel Raldes
320,Ayan,RU,55.81,overcast clouds,56.45,138.1667,Gostinitsa
321,Caravelas,BR,69.15,clear sky,-17.7125,-39.2481,Pousada dos Navegantes
322,Cap Malheureux,MU,67.46,clear sky,-19.9842,57.6142,Pereybere Hotel & Spa
324,Bayugan,PH,84.47,overcast clouds,8.7561,125.7675,Susan Pension House
325,Lufkin,US,96.93,clear sky,31.3382,-94.7291,Courtyard by Marriott Lufkin
326,La Cruz,MX,84.42,overcast clouds,23.9167,-106.9,Jesús angel
327,Hami,CN,85.28,clear sky,42.8,93.45,Laoyutang Resort
328,Quatre Cocos,MU,67.08,few clouds,-20.2078,57.7625,Sunrise Attitude Hotel
329,Touros,BR,73.35,broken clouds,-5.1989,-35.4608,INN NEW HORIZON
330,Chuy,UY,57.25,moderate rain,-33.6971,-53.4616,Nuevo Hotel Plaza
331,Xuddur,SO,67.41,clear sky,4.1213,43.8894,Banjanay Hotel
332,Ocos,GT,82.13,overcast clouds,14.5094,-92.1933,Auto Hotel El Soñador
334,Varna,BG,69.87,clear sky,43.2167,27.9167,Golden Tulip Varna
336,Salalah,OM,75.78,overcast clouds,17.0151,54.0924,"HAMDAN PLAZA HOTEL SALALAH, an HTG Hotel"
337,Qasigiannguit,GL,36.97,overcast clouds,68.8193,-51.1922,Almost HOME
338,Isangel,VU,77.11,overcast clouds,-19.55,169.2667,Tanna Lodge
339,Guhagar,IN,77.95,overcast clouds,17.4842,73.1929,Hotel Seawinds
340,Gombong,ID,73.9,overcast clouds,-7.6072,109.5142,Grafika Hotel Dan Restoran
341,Sevierville,US,80.2,clear sky,35.8681,-83.5618,The Lodge at Five Oaks
342,Cabra,ES,81.84,clear sky,37.4725,-4.4421,MS Fuente Las Piedras
343,Port Hueneme,US,86.79,few clouds,34.1478,-119.1951,Hampton Inn Channel Islands Harbor
344,Fukue,JP,80.96,few clouds,32.6881,128.8419,Goto Guesthouse Utojuku & SA Car Rental
346,Pafos,CY,74.98,clear sky,34.7667,32.4167,Elysium Hotel
347,Ribas Do Rio Pardo,BR,71.47,clear sky,-20.4431,-53.7592,Pousada Avenida
348,Santa Rosa,PH,87.03,overcast clouds,14.3122,121.1114,Erlyn’s Sta Rosa City Home
349,Longyearbyen,SJ,44.56,light rain,78.2186,15.6401,"Radisson Blu Polar Hotel, Spitsbergen"
350,Tamworth,GB,58.93,overcast clouds,52.63399999999999,-1.6959,Drayton Manor Hotel
351,Haputale,LK,63.63,overcast clouds,6.7681,80.9595,Leisure Mount View Holiday Inn
352,Agnibilekrou,CI,69.08,overcast clouds,7.1344,-3.2047,"J'AIME ATTOBRO, (Mon Village)"
353,Bridlington,GB,55.89,overcast clouds,54.0831,-0.1919,Expanse Bridlington Seafront Hotel
354,Yuanping,CN,72.72,few clouds,38.7153,112.7575,Yuanping Xinghe Guesthouse
355,Westport,US,81.07,clear sky,41.1415,-73.3579,The Westport Inn
357,Tromso,NO,55.42,overcast clouds,69.6496,18.957,"Radisson Blu Hotel, Tromsø"
358,Bunbury,AU,62.02,overcast clouds,-33.3333,115.6333,Bunbury Hotel Koombana Bay
359,Sinnamary,GF,78.75,overcast clouds,5.3833,-52.95,ALETHEIA Appartement Sinnamary
360,Koutiala,ML,77.38,broken clouds,12.3917,-5.4642,Hotel La Chaumiere
361,Mata,PT,62.76,clear sky,40.683,-7.4592,Hostel EntryFik
362,Yulara,AU,55.38,clear sky,-25.2406,130.9889,Desert Gardens Hotel - Ayers Rock Resort
363,Vammala,FI,65.1,light rain,61.3333,22.9,Vammalan Seurahuone Oy
365,Makakilo City,US,86.32,broken clouds,21.3469,-158.0858,Marriott's Ko Olina Beach Club
366,General Roca,AR,44.64,overcast clouds,-39.0333,-67.5833,Hotel El Recreo
367,Roma,US,69.94,clear sky,43.2128,-75.4557,Wingate By Wyndham Rome
368,Artur Nogueira,BR,69.91,clear sky,-22.5731,-47.1725,Novo Hotel
369,Dunedin,NZ,45.5,overcast clouds,-45.8742,170.5036,Scenic Hotel Southern Cross
370,Casa Nova,BR,73.72,overcast clouds,-9.4167,-41.1333,LÔRO BEACH. DUNAS
372,San Antonio,US,99.48,scattered clouds,29.4241,-98.4936,Drury Plaza Hotel San Antonio Riverwalk
373,Shahrud,IR,68.76,overcast clouds,36.4182,54.9763,Royal Hotel
375,San Jose,US,85.59,few clouds,37.3394,-121.895,The Westin San Jose
376,Shubarkuduk,KZ,72.64,overcast clouds,49.1447,56.4872,Sirius
377,Verkhnevilyuysk,RU,79.32,clear sky,63.4453,120.3167,Gostinitsa Mila
378,Khandbari,NP,72.84,overcast clouds,27.3747,87.2039,Sainik Hotel And Lodge
379,Naze,JP,83.32,few clouds,28.3667,129.4833,Shishime Hotel
380,Usinsk,RU,48.52,light rain,65.9939,57.5281,Dobro Pozhalovaty
381,Ardon,RU,61.79,clear sky,43.17,44.29,Blossom
382,Udachnyy,RU,73.45,overcast clouds,66.4167,112.4,Severnoye Siyaniye
383,Sorokino,RU,60.71,few clouds,53.75,84.9167,Northern Hotel
384,Tigre,AR,62.22,few clouds,-34.426,-58.5796,Puerto Delta Apartamentos
385,Berbera,SO,88.97,scattered clouds,10.4396,45.0143,IBCO REAL ESTATE PROPERTY
386,Veraval,IN,81.55,overcast clouds,20.9,70.3667,Lords Inn Somnath
387,Bogo,PH,84.81,scattered clouds,11.0517,124.0055,Acrige Apartelle
388,Hamilton,US,78.1,light rain,39.1834,-84.5333,Six Acres Bed & Breakfast
389,Luleburgaz,TR,68.45,clear sky,41.4039,27.3592,alparslan rant a car
390,Qui Nhon,VN,82.63,overcast clouds,13.7667,109.2333,Seagull Hotel
391,Samarai,PG,80.2,overcast clouds,-10.6167,150.6667,Nuli Sapi
392,Kuusamo,FI,60.84,clear sky,65.9667,29.1833,Hotel Kuusanka
393,San Carlos De Bariloche,AR,38.95,broken clouds,-41.1456,-71.3082,Hotel Patagonia
394,San Fernando,PH,83.93,light rain,15.0286,120.6898,Maharlika Hostel
395,Butterworth,MY,81.0,few clouds,5.3991,100.3638,Cititel Penang
396,Houma,US,84.2,clear sky,29.5958,-90.7195,Courtyard by Marriott Houma
397,Utiel,ES,70.59,clear sky,39.5667,-1.2,Hotel Restaurante El Tollo
398,Twistringen,DE,65.79,overcast clouds,52.8,8.65,Domschänke Twistringen
400,Vestmanna,FO,45.52,overcast clouds,62.1564,-7.1664,Vestmanna Camping
401,Port Lincoln,AU,57.2,scattered clouds,-34.7333,135.8667,Port Lincoln Hotel
402,Rabo De Peixe,PT,71.11,scattered clouds,37.8,-25.5833,Quinta das Giestas
403,Nemuro,JP,65.68,clear sky,43.3236,145.575,Hotel Nemuro Kaiyoutei
404,Traiguen,CL,50.16,overcast clouds,-38.25,-72.6833,Hospedaje Sonnia
405,Broken Hill,AU,52.18,clear sky,-31.95,141.4333,Royal Exchange Hotel
406,Tazovskiy,RU,50.77,overcast clouds,67.4667,78.7,TazHostel
407,Teknaf,BD,80.19,broken clouds,20.8624,92.3058,Forestry Guesthouse
408,Surt,LY,79.21,clear sky,31.2089,16.5887,الهادي ابوشعاله سرت
409,Surazh,RU,55.6,clear sky,53.0175,32.3918,Mini Hotel Surazhichi
410,Port Hedland,AU,69.85,clear sky,-20.3167,118.5667,The Esplanade Hotel
411,Soroti,UG,66.22,overcast clouds,1.7146,33.6111,Strikers Hotel
412,Rumford,US,72.09,clear sky,44.5537,-70.5509,coastal rentals llc
414,Sola,VU,84.87,overcast clouds,-13.8833,167.55,Leumerus Bungalows
415,Santa Cruz,BO,78.26,broken clouds,-17.8,-63.1667,Aviador Hotel Boutique
416,Kruisfontein,ZA,44.89,clear sky,-34.0033,24.7314,Oyster Bay House Rental
417,Darovskoy,RU,59.5,scattered clouds,58.77,47.9564,"Hotel ""Central"""
418,Rognac,FR,82.72,clear sky,43.4876,5.2339,Clos la Verdière
419,Upernavik,GL,39.16,broken clouds,72.7868,-56.1549,Café de Upernavik
420,Pringsewu,ID,75.9,overcast clouds,-5.3582,104.9744,Urban Style by Front One
421,Kyrylivka,UA,67.8,clear sky,46.3759,35.3675,"Rok-Hotelʹ ""Kleopatra"""
422,Severo-Kurilsk,RU,54.46,scattered clouds,50.6789,156.125,Kak Doma
423,Amanpur,IN,83.66,clear sky,27.7167,78.75,Shri Devarishi maharaj ashram banupur
424,Male,MV,80.55,light rain,4.1748,73.5089,Hotel Octave Maldives
425,Havoysund,NO,53.83,overcast clouds,70.9963,24.6622,Arctic View Glamping & Restaurant
426,Kondinskoye,RU,63.18,light rain,59.6481,67.41,Gostinitsa
427,Celestun,MX,82.69,broken clouds,20.8667,-90.4,Posada Lilia
428,Kilindoni,TZ,75.81,few clouds,-7.9139,39.6668,Bustani B&B
429,Kinablangan,PH,83.39,overcast clouds,7.6947,126.5503,Morales Eatery and Lodging House
430,Netivot,IL,74.46,clear sky,31.4222,34.5886,"'בית החסד - מוסדות מאורות נתן' - מיסודו של הרב נתן בוקובזה זצוק""ל"
431,Rosetta,EG,77.63,clear sky,31.4044,30.4164,Green Valley
432,Bastia,FR,80.4,few clouds,42.6667,9.3333,Hotel Santa Maria
433,Warrnambool,AU,52.34,overcast clouds,-38.3833,142.4833,Lady Bay Resort
434,Salinas,US,77.81,clear sky,36.6777,-121.6555,Laurel Inn & Conference Center
435,Yining,CN,92.12,clear sky,29.0361,114.5636,Xiushui Hotel
436,Haines Junction,CA,69.75,overcast clouds,60.7522,-137.5108,Parkside Inn
437,Kutum,SD,79.72,broken clouds,14.2,24.6667,Dibbo areaمنطقة دبو
438,Ahipara,NZ,56.35,light rain,-35.1667,173.1667,Ahipara Holiday Park
439,Tuatapere,NZ,45.0,light rain,-46.1333,167.6833,Ron and Tony's Bed & Breakfast
440,Ponta Delgada,PT,72.32,scattered clouds,37.7333,-25.6667,Vila Nova Hotel
441,Karratha,AU,68.7,clear sky,-20.7377,116.8463,ibis Styles Karratha
442,San Policarpo,PH,84.22,overcast clouds,12.1791,125.5072,Agapita M. Nicart
445,Pangkalanbuun,ID,81.19,overcast clouds,-2.6833,111.6167,Grand Kecubung Hotel
446,Paka,MY,75.13,few clouds,4.6374,103.4368,RUMBIA RESORT VILLA Paka Terengganu
447,Amarante Do Maranhao,BR,77.97,overcast clouds,-5.5667,-46.7422,Hotéis Caçulinha
448,Zabaykalsk,RU,69.6,overcast clouds,49.6333,117.3167,Zheleznyy Mir
449,Port Macquarie,AU,66.65,scattered clouds,-31.4333,152.9167,Rydges Port Macquarie
452,Faro,PT,83.98,clear sky,37.0194,-7.9322,Hotel Faro & Beach Club
454,Subate,LV,56.17,broken clouds,56.0062,25.9076,усадьба Казимирвалес | Kazimirvāles muiža
455,Nova Olinda Do Norte,BR,76.48,clear sky,-3.8881,-59.0942,Casa Juazeiro
456,Ganzhou,CN,91.45,broken clouds,28.8184,115.4327,Zhanqian Grand Hotel
457,Ghanzi,BW,58.44,broken clouds,-21.5667,21.7833,Ghanzi Farmhouse
458,Constitucion,CL,53.13,heavy intensity rain,-35.3333,-72.4167,Hotel Boutique Las Azucenas
459,Labuan,MY,80.96,few clouds,5.2767,115.2417,Tiara Labuan Hotel
460,Atherton,GB,57.42,overcast clouds,53.5237,-2.4935,The Mercury Motel
461,Neuquen,AR,44.49,light intensity drizzle,-38.9516,-68.0591,Hotel del Comahue
462,Coquimbo,CL,53.33,few clouds,-29.9533,-71.3436,Hotel San Juan
463,Payo,ID,75.38,broken clouds,-3.7508,103.6372,Mess keban agung
464,Port Hawkesbury,CA,76.8,clear sky,45.6169,-61.3485,MacKenzie House Tourist Home B&B
465,Sao Filipe,CV,78.17,overcast clouds,14.8961,-24.4956,Hotel Xaguate
467,Lata,PT,58.87,clear sky,40.1629,-8.3327,Casa Maquia
468,Khor,RU,75.38,broken clouds,47.8861,134.9464,Gostinitsa Deksi
469,Isaccea,RO,70.43,clear sky,45.2667,28.4667,Pension Danube Isaccea
470,Namibe,AO,60.96,clear sky,-15.1961,12.1522,Hotel Chik Chik Namibe
472,Kurilsk,RU,61.18,light rain,45.2333,147.8833,Hotel Ostrov
473,Barao De Melgaco,BR,75.42,clear sky,-16.1944,-55.9675,Tuiuiu Pantanal Hotel
474,Naantali,FI,66.61,clear sky,60.4674,22.0243,Naantali Spa Hotel & Resort
475,Chukhloma,RU,58.91,broken clouds,58.7525,42.6825,Berezka
476,San Isidro,PE,63.01,overcast clouds,-12.1167,-77.05,Radisson Hotel Decapolis Miraflores
477,Marienburg,PL,70.88,overcast clouds,54.0359,19.0266,Hotel Centrum Malbork
478,Cervo,ES,65.97,overcast clouds,43.6702,-7.4101,Hotel Spa Galatea
479,Ilhabela,BR,66.2,scattered clouds,-23.7781,-45.3581,Ilha Flat Hotel
480,Pokrovskoye,RU,66.02,clear sky,47.4157,38.8971,Тихий уголок
481,Belmonte,BR,71.22,overcast clouds,-15.8631,-38.8828,Pousada Monte Carmelo O Pão
482,Vuktyl,RU,47.91,clear sky,63.8567,57.3094,Mini-Hotel Lokomotiv
483,Codrington,AU,53.11,broken clouds,-38.2667,141.9667,Codrington Gardens Bed And Breakfast
484,Necochea,AR,52.61,moderate rain,-38.5473,-58.7368,dyd -mar Hotel
485,Zhigansk,RU,70.79,few clouds,66.7697,123.3711,Gostinichnyy Kompleks Aylgy
486,Nyrob,RU,52.5,overcast clouds,60.733000000000004,56.7202,Gostinitsa
487,Omaha,US,72.45,broken clouds,41.2586,-95.9378,DoubleTree by Hilton Hotel Omaha Downtown
488,Hastings,GB,63.91,few clouds,50.8552,0.5729,Zanzibar Hotel
489,Port Augusta,AU,57.29,clear sky,-32.5,137.7667,Majestic Oasis Apartments
490,Ayagoz,KZ,65.93,clear sky,47.9714,80.4392,ХАН
491,Moundou,TD,71.96,moderate rain,8.5667,16.0833,Planete Life
492,Tura,IN,73.87,overcast clouds,25.5198,90.2201,Hotel RIKMAN Continental
493,Victoria,HK,88.25,few clouds,22.2855,114.1577,Mini Central
494,Pyaozerskiy,RU,55.6,overcast clouds,65.8333,31.1667,Taratuga
495,Dingle,PH,83.14,broken clouds,10.9995,122.6711,SEGAYA PROPERTY
497,Tahlequah,US,98.82,clear sky,35.9154,-94.97,Oak Hill Inn and Suites
498,Merrill,US,70.57,clear sky,45.1805,-89.6835,Prairie Motel
499,Tshikapa,CD,75.43,broken clouds,-6.4167,20.8,Tatem beach
500,Fare,PF,78.26,light rain,-16.7,-151.0167,Maitai Lapita Village Huahine
501,Baruun-Urt,MN,63.81,moderate rain,46.6806,113.2792,Ахмадын амралт сувилал
502,Knysna,ZA,53.58,clear sky,-34.0363,23.0471,Protea Hotel by Marriott Knysna Quays
503,Pangai,TO,80.71,few clouds,-19.8,-174.35,Ha'apai Beach Resort
504,Shonguy,RU,57.27,clear sky,68.7526,33.146,Shonguy Riverside Cottage House
505,Lethem,GY,74.59,overcast clouds,3.3803,-59.7968,Savannah Inn
506,Andenes,NO,55.38,overcast clouds,69.3143,16.1194,Hotell Marena
508,Hue,VN,84.31,few clouds,16.4667,107.6,Saigon Morin Hotel
509,Nadym,RU,54.41,few clouds,65.5333,72.5167,Apartment on Zvereva
510,Goya,AR,69.19,clear sky,-29.14,-59.2626,Apart Costanera Goya
511,Buala,SB,84.45,light rain,-8.145,159.5921,Maringe Lagoon Lodge
512,Bereda,ES,57.15,broken clouds,43.2686,-7.5406,Pazo de Verdes
513,Asau,RO,63.95,clear sky,46.4333,26.4,Casa Mika Ciobanus
514,Kupang,ID,80.76,broken clouds,-10.1667,123.5833,Hotel On The Rock by Prasanthi
515,Saint Pete Beach,US,85.19,overcast clouds,27.7253,-82.7412,Sirata Beach Resort
516,Dubbo,AU,51.93,overcast clouds,-32.25,148.6167,Quality Inn Dubbo International
517,Vallenar,CL,59.27,scattered clouds,-28.5708,-70.7581,Humacao Bed & Breakfast
518,Miri,MY,77.14,few clouds,4.4148,114.0089,"Mega Hotel, Miri"
521,San Rafael,AR,48.54,broken clouds,-34.6177,-68.3301,Hotel San Rafael
522,Hovd,MN,59.4,clear sky,48.0056,91.6419,Hotel Khovd
523,Bonavista,CA,64.54,overcast clouds,48.6499,-53.1147,Sweet Sharons bnb
524,Carire,BR,74.7,broken clouds,-3.9506,-40.4733,POUSADA PAIVA
525,Winnemucca,US,98.65,clear sky,40.973,-117.7357,Winners Inn Casino
526,Oslo,NO,61.25,broken clouds,59.9127,10.7461,Anker Hotel
528,Belyy Yar,RU,58.86,light intensity shower rain,53.6039,91.3903,Pasportnyy Stol
529,Kattivakkam,IN,80.69,overcast clouds,13.2167,80.3167,Euronova Freezer
530,Boone,US,74.25,overcast clouds,39.0334,-92.3335,Cottonwoods RV Park
531,Barinas,VE,86.04,few clouds,8.6226,-70.2075,Hotel Mastranto Suite
532,Peace River,CA,73.71,broken clouds,56.2501,-117.286,BCMInns - Peace River
533,Pombas,CV,76.78,overcast clouds,17.1503,-25.0201,Paul Paradis
534,Kiama,AU,64.38,broken clouds,-34.6833,150.8667,The Sebel Kiama Harbourside
535,Chilakalurupet,IN,81.34,overcast clouds,16.0833,80.1667,Sri vishnu priya lodge
536,Korla,CN,83.26,clear sky,41.7597,86.1469,Gulisitan Hotel
537,Port Blair,IN,82.44,scattered clouds,11.6667,92.75,"Welcomhotel By ITC Hotels, Bay Island, Port Blair"
538,Mantsala,FI,65.88,overcast clouds,60.6609,25.2838,Majoitus ja juhlapalvelu Ruustinnan Kammari
539,Paris,FR,66.11,clear sky,48.8534,2.3488,Britannique Hotel - Paris Centre
540,Plattsburgh,US,72.21,clear sky,44.6995,-73.4529,La Quinta Inn & Suites by Wyndham Plattsburgh
541,Yellandu,IN,76.06,overcast clouds,17.6,80.3333,Varalaxmi
542,Karatau,KZ,74.88,clear sky,43.1667,70.4667,Baza Zika
543,Batagay,RU,77.74,scattered clouds,67.6333,134.6333,Gostinitsa Ki'ileekh
544,Loa Janan,ID,78.87,broken clouds,-0.583,117.095,Kost bu jono
545,Suzun,RU,62.38,broken clouds,53.7841,82.3116,Akhpkhakhakhakha
546,Penzance,GB,61.48,overcast clouds,50.1186,-5.5371,Artist Residence Penzance
547,Marawi,PH,79.56,overcast clouds,7.9986,124.2928,Derogongan Residence
549,Porto Novo,BJ,76.82,overcast clouds,6.4965,2.6036,Tour Eiffel Hotel Benin
550,San Andres,CO,80.62,broken clouds,12.5847,-81.7006,Hotel Arena Blanca
551,Olean,US,72.28,scattered clouds,42.0776,-78.4297,Best Western Plus University Inn
552,Awbari,LY,78.96,clear sky,26.5921,12.7805,فندق أوباري
553,Shelburne,CA,64.85,clear sky,44.0787,-80.2041,The Retreat at the Farm
554,Pyapon,MM,81.86,broken clouds,16.2833,95.6833,Aung Naing Thu Motel
555,Puerto Madero,MX,82.18,overcast clouds,14.7208,-92.4215,DEPARTAMENTOS LA ESTANCIA
556,Vardo,NO,53.58,overcast clouds,70.3705,31.1107,Vardø Hotel AS
557,Paita,PE,64.31,broken clouds,-5.0892,-81.1144,Hotel Náutico de Paita
558,Matai,TZ,56.77,broken clouds,-8.3,31.5167,Rashid agro vet
559,Blairmore,CA,71.78,overcast clouds,49.6,-114.4353,Highwood Motel
560,Gorele,TR,66.42,clear sky,41.0308,39.0031,Görele Öğretmenevi
562,Kindu,CD,73.4,overcast clouds,-2.95,25.95,Résidence Okanda
563,Inirida,CO,73.36,overcast clouds,3.8653,-67.9239,Fuente del Guania Hotel de Lujo
565,Tabuk,PH,82.99,overcast clouds,17.4189,121.4443,Golden Berries Hotel and Convention
566,Mbanza-Ngungu,CD,66.83,overcast clouds,-5.25,14.8667,Hotel Full Business
567,Mlimba,TZ,67.19,scattered clouds,-8.8,35.8167,California Lodge
568,Oyama,JP,78.62,overcast clouds,36.3,139.8,Toyoko Inn Oyama-eki Higashi-guchi No.1
569,Alexandria,EG,73.36,clear sky,31.2156,29.9553,Royal Crown Hotel
570,Sorland,NO,53.46,overcast clouds,67.667,12.6934,Sjybrygga fiskecamp
571,Coihaique,CL,26.55,few clouds,-45.5752,-72.0662,Diego De Almagro Coyhaique
572,Barra Do Garcas,BR,75.78,clear sky,-15.89,-52.2567,Pousada Tropical
573,Upington,ZA,52.18,clear sky,-28.4478,21.2561,River Place Manor
574,Peniche,PT,66.29,clear sky,39.3558,-9.3811,Hotel Star inn Peniche
575,Da Nang,VN,87.78,clear sky,16.0678,108.2208,Grand Mercure Danang
576,Yarada,IN,79.12,mist,17.65,83.2667,Yarada Jungle Beach Resorts
578,Ughelli,NG,73.36,overcast clouds,5.4899,6.0074,Prestige Hotel
579,Brae,GB,50.13,overcast clouds,60.3964,-1.3530000000000002,Busta House Hotel
580,Beian,NO,58.01,broken clouds,63.6559,9.5683,"Fjord-Fishing AS, Property & Housing Co."
581,Vestmannaeyjar,IS,52.57,overcast clouds,63.4427,-20.2734,Glamping & Camping
584,Maputo,MZ,56.88,few clouds,-25.9653,32.5892,Pestana Rovuma
585,Kapit,MY,74.28,overcast clouds,2.0167,112.9333,Hotel Meligai Kapit
586,Chone,EC,70.99,overcast clouds,-0.6833,-80.1,Ciudadela Gonzalez
587,Mombetsu,JP,64.42,fog,44.3525,143.3525,Okhotsk Palace Hotel
588,Geraldton,AU,46.81,clear sky,-28.7667,114.6,Broadwater Mariner Resort
589,Bend,US,97.48,clear sky,44.0582,-121.3153,Fairfield Inn & Suites by Marriott Bend Downtown
590,Aviles,ES,67.37,overcast clouds,43.5547,-5.9248,"Palacio de Avilés, Affiliated by Meliá"
592,Cravo Norte,CO,73.94,overcast clouds,6.3017,-70.2041,Hotel Potosí Los Mirtos
593,Tual,ID,79.54,clear sky,-5.6667,132.75,Grand Vilia Hotel
594,Abnub,EG,84.42,clear sky,27.2696,31.1511,دوار ال عبد الجواد شرق البلد بابنوب
595,Barcelos,PT,69.85,clear sky,41.5388,-8.6151,Hotel Restaurante Bagoeira
596,Takhatpur,IN,77.9,moderate rain,22.15,81.8667,School nigarband
597,Pochutla,MX,77.13,scattered clouds,15.7432,-96.4661,Hotel Posada San Jose
598,Noumea,NC,73.38,overcast clouds,-22.2763,166.4572,Hôtel Le Lagon
599,Tocopilla,CL,61.38,scattered clouds,-22.092,-70.1979,Hotel Galvarino
600,San Francisco,US,80.4,few clouds,37.7749,-122.4194,Edwardian Hotel
601,Pangnirtung,CA,49.06,scattered clouds,66.1451,-65.7125,Kilabuk Lodge
602,Kalmunai,LK,79.84,overcast clouds,7.4167,81.8167,VS Villa
603,Ternate,ID,82.24,broken clouds,0.8,127.4,Sahid Bela Ternate Hotel
605,Komsomolskiy,UZ,79.52,clear sky,40.4272,71.7189,Ikathouse
606,Poronaysk,RU,63.14,light rain,49.2167,143.1167,Avtovokzal Khostel Stolovaya
607,Nurota,UZ,86.83,clear sky,40.5614,65.6886,Guest House Ruslan Nurata & Tours
608,Taltal,CL,58.73,clear sky,-25.4,-70.4833,Residencial Karime
609,Salinopolis,BR,79.41,overcast clouds,-0.6136,-47.3561,Salinas Park Resort Maçarico AP101
610,Maceio,BR,72.84,few clouds,-9.6658,-35.7353,Hotel Ponta Verde Maceió
612,Matara,LK,77.59,broken clouds,5.9485,80.5353,Amaloh Boutique Resort
613,Ballina,AU,71.78,clear sky,-28.8667,153.5667,Ramada Hotel & Suites by Wyndham Ballina Byron
614,Sao Miguel Do Araguaia,BR,76.21,few clouds,-13.275,-50.1628,Hotel Executivo Palace
615,Kloulklubed,PW,79.3,overcast clouds,7.0419,134.2556,Storyboard Beach Resort
616,Whitehorse,CA,74.17,broken clouds,60.7161,-135.0538,The Sternwheeler Hotel & Conference Centre
617,Accra,GH,77.41,few clouds,5.556,-0.1969,Accra City Hotel
618,Bonito,BR,72.97,clear sky,-21.1211,-56.4819,Marruá Hotel
619,Kushuhum,UA,63.45,clear sky,47.7144,35.2092,Hotel Clear House
621,Honningsvag,NO,53.35,overcast clouds,70.9821,25.9704,Nordkapp Vandrerhjem
622,Umm Lajj,SA,83.61,overcast clouds,25.0213,37.2685,Moon light Furnished Units
623,Hongjiang,CN,87.67,scattered clouds,27.11,109.9956,洪江大酒店
624,Bafoulabe,ML,75.92,overcast clouds,13.8065,-10.8321,Logement du Chargé SIS Abdoul Karim Konaté
625,Maldonado,UY,57.22,overcast clouds,-34.6667,-54.9167,La Cimarrona
626,Nara,JP,90.91,overcast clouds,34.6851,135.8049,Guesthouse Nara Komachi
627,Inta,RU,46.65,light rain,66.0317,60.1659,Apartments in Inta city
628,Marsa Matruh,EG,77.2,clear sky,31.3525,27.2453,Beau Site
629,Sheridan,US,86.02,clear sky,44.8333,-106.9173,Comfort Inn & Suites
630,Mwinilunga,ZM,57.52,clear sky,-11.7358,24.4293,Kwakuwahi Lodge
631,San Quintin,MX,70.52,clear sky,30.4833,-115.95,Don Eddie's Sport Fishing Center
632,Dali,CN,65.32,broken clouds,25.7,100.1833,Dali Travelling With Hostel
633,Harlingen,US,91.49,overcast clouds,26.1906,-97.6961,Courtyard by Marriott Harlingen
634,Sao Jose Da Coroa Grande,BR,73.78,broken clouds,-8.8978,-35.1478,Crôa Mares Hotel
635,Margate,GB,63.9,scattered clouds,51.3813,1.3862,Premier Inn Margate hotel
636,Omboue,GA,71.83,broken clouds,-1.5746,9.2618,Hotel Olako
637,Pingliang,CN,77.38,clear sky,35.5392,106.6861,North Gate Hostel
638,Pretoria,ZA,50.2,clear sky,-25.7449,28.1878,Hotel 224
639,Eyl,SO,75.96,overcast clouds,7.9803,49.8164,Amiin Hotel
640,Channel-Port Aux Basques,CA,64.26,overcast clouds,47.5702,-59.1367,St. Christopher's Hotel
641,Praia Da Vitoria,PT,75.76,broken clouds,38.7333,-27.0667,Hotel Branco I
642,Puerto Leguizamo,CO,71.6,overcast clouds,-0.1934,-74.7819,la casona de juancho
643,Zwedru,LR,68.41,clear sky,6.0667,-8.1281,Elijah Worjloh
644,Hohhot,CN,66.49,light rain,40.8106,111.6522,Sheraton Hohhot Hotel
646,Saint-Pierre,RE,67.91,clear sky,-21.3393,55.4781,Alize Plage
648,Miandrivazo,MG,65.71,clear sky,-19.5167,45.4667,Hôtel Arc En Ciel Miandrivazo
650,Dobreni,RO,61.48,clear sky,46.9833,26.4167,Craii Neamtului
651,Doha,QA,93.09,clear sky,25.2867,51.5333,Doha Marriott Hotel
654,Tambopata,PE,72.28,overcast clouds,-12.7333,-69.1833,Enashawa Lodge
655,Ixtapa,MX,85.23,overcast clouds,20.7,-105.2,hotel la terminal
656,Chapais,CA,56.98,overcast clouds,49.7834,-74.8492,Hôtel Opémiska
657,Slave Lake,CA,67.98,broken clouds,55.2834,-114.76899999999999,Super 8 by Wyndham Slave Lake AB
658,Tam Ky,VN,84.18,scattered clouds,15.5667,108.4833,Nhà Nghỉ Phương Hòa
660,Hervey Bay,AU,64.2,clear sky,-25.2986,152.8535,Shelly Bay Resort
662,Patulul,GT,73.94,overcast clouds,14.4167,-91.1667,Hotel Moises
663,Alegrete,BR,66.65,clear sky,-29.7831,-55.7919,Hotel Alegrete
664,Dubrovnik,HR,73.04,clear sky,42.6481,18.0922,Hotel Dubrovnik Palace
665,Am Timan,TD,75.13,light rain,11.0297,20.2827,Palais du chef Canton Salamt
666,Mariel,CU,82.26,light rain,22.9875,-82.7536,Casa De Alojamiento Marilda
667,Mae Sai,TH,78.64,clear sky,20.4335,99.8762,Piyaporn Hill Paradise Hotel
668,Parana,AR,72.55,light rain,-31.732,-60.5238,Howard Johnson by Wyndham Plaza Hotel Mayorazgo
669,Bonthe,SL,74.77,overcast clouds,7.5264,-12.505,Bonthe Holiday Village
670,Paamiut,GL,43.88,overcast clouds,61.994,-49.6678,Pistut
671,Cockburn Town,TC,84.16,scattered clouds,21.4612,-71.1419,Osprey Beach Hotel
672,Pravia,ES,64.67,overcast clouds,43.4906,-6.1508,Antiguo Casino Hotel
674,Rio Grande,BR,62.71,overcast clouds,-32.035,-52.0986,Hotel Atlântico Rio Grande
675,Manjacaze,MZ,57.34,clear sky,-24.7117,33.8828,Hotel Gani
677,Ugep,NG,72.27,overcast clouds,5.8086,8.0812,"Don Wills Club, Bar and Lodge/Hotel"
678,Worland,US,87.89,clear sky,44.0169,-107.9554,Town House Motor Inn
679,Mutoko,ZW,48.81,clear sky,-17.397000000000002,32.2268,Mutoko Hotel
680,Acapulco,MX,81.57,overcast clouds,16.8634,-99.8901,HS Hotsson Smart Acapulco
682,Vao,NC,69.22,clear sky,-22.6667,167.4833,Hotel Kou-Bugny
683,Novobirilyussy,RU,55.15,broken clouds,56.9514,90.6661,Gostinitsa
684,Pasni,PK,81.95,light rain,25.2631,63.471000000000004,Kashmiri Hotal
685,Kautokeino,NO,51.89,overcast clouds,69.0125,23.0412,Thon Hotel Kautokeino
686,Tongchuan,CN,77.5,clear sky,35.0806,109.0897,Tongchuan Hotel
687,Benemerito De Las Americas,MX,75.96,overcast clouds,16.5167,-90.6439,Residencia Univeresitaria
689,Saint-Ambroise,CA,66.52,overcast clouds,48.5501,-71.3324,Motel Saint-Ambroise
690,Boissevain,CA,73.9,overcast clouds,49.2306,-100.0559,Boissevain Campgrounds
691,Les Cayes,HT,79.23,clear sky,18.2,-73.75,Villa Orphee
692,Daru,PG,78.08,overcast clouds,-9.0763,143.2092,Daru Lodge
693,Morro Bay,US,86.18,few clouds,35.3658,-120.8499,Inn at Morro Bay
694,Matamoros,MX,95.11,dust,25.5333,-103.25,Quinta Belem
696,Gizo,SB,83.86,broken clouds,-8.103,156.8419,Imagination Island
697,Richards Bay,ZA,55.17,clear sky,-28.783,32.0377,BON Hotel Waterfront Richards Bay
699,Solnechnyy,RU,66.9,broken clouds,50.7214,136.6319,Hotel complex Pastoral
700,Port Keats,AU,82.81,scattered clouds,-14.25,129.55,TDC Village (Hundred Man Camp)
